{
"type": "FeatureCollection",
"name": "Public_Health_Care_Facilities",
"crs": { "type": "name", "properties": { "name": "urn:ogc:def:crs:OGC:1.3:CRS84" } },
"features": [
{ "type": "Feature", "properties": { "FID": 99, "NAME": "Allenmore Hospital", "ADDRESS": "1901 S UNION AVE", "CITY": "Tacoma", "ZIP": "98405", "PHONE": "253-459-6633", "TYPE": "Hospitals" }, "geometry": { "type": "Point", "coordinates": [ -122.480830696999988, 47.241582942000036 ] } },
{ "type": "Feature", "properties": { "FID": 100, "NAME": "Good Samaritan Hospital", "ADDRESS": "401 15TH AVE SE", "CITY": "Puyallup", "ZIP": "98372", "PHONE": "253-697-4000", "TYPE": "Hospitals" }, "geometry": { "type": "Point", "coordinates": [ -122.290123579999943, 47.178615963000027 ] } },
{ "type": "Feature", "properties": { "FID": 101, "NAME": "Madigan Hospital", "ADDRESS": "9040 JACKSON AVE\r\n", "CITY": "Tacoma", "ZIP": "98431", "PHONE": "253-968-1110", "TYPE": "Hospitals" }, "geometry": { "type": "Point", "coordinates": [ -122.551901533999967, 47.10902318400008 ] } },
{ "type": "Feature", "properties": { "FID": 102, "NAME": "Mary Bridge Hospital", "ADDRESS": "317 MARTIN LUTHER KING JR WAY", "CITY": "Tacoma", "ZIP": "98403", "PHONE": "253-403-1400", "TYPE": "Hospitals" }, "geometry": { "type": "Point", "coordinates": [ -122.453007923999962, 47.259266659000048 ] } },
{ "type": "Feature", "properties": { "FID": 103, "NAME": "Tacoma Medical Center - Group Health", "ADDRESS": "209 MARTIN LUTHER KING JR. WAY", "CITY": "Tacoma", "ZIP": "98405", "PHONE": "253-596-3300", "TYPE": "Alternate Care Facilities" }, "geometry": { "type": "Point", "coordinates": [ -122.452775358999986, 47.260652618000051 ] } },
{ "type": "Feature", "properties": { "FID": 104, "NAME": "St Clare Hospital", "ADDRESS": "11315 BRIDGEPORT WAY SW", "CITY": "Lakewood", "ZIP": "98499", "PHONE": "253-985-1711", "TYPE": "Hospitals" }, "geometry": { "type": "Point", "coordinates": [ -122.50212346, 47.154579160000026 ] } },
{ "type": "Feature", "properties": { "FID": 105, "NAME": "St Joseph Medical Center", "ADDRESS": "1717 S J ST", "CITY": "Tacoma", "ZIP": "98405", "PHONE": "253-426-4101", "TYPE": "Hospitals" }, "geometry": { "type": "Point", "coordinates": [ -122.44793640099999, 47.245307380000042 ] } },
{ "type": "Feature", "properties": { "FID": 106, "NAME": "Tacoma General Hospital", "ADDRESS": "315 MARTIN LUTHER KING JR WAY", "CITY": "Tacoma", "ZIP": "98405", "PHONE": "253-403-1000", "TYPE": "Hospitals" }, "geometry": { "type": "Point", "coordinates": [ -122.45305284799997, 47.259460047000061 ] } },
{ "type": "Feature", "properties": { "FID": 107, "NAME": "Western State Hospital (WSH)", "ADDRESS": "9601 STEILACOOM BLVD SW", "CITY": "Lakewood", "ZIP": "98498", "PHONE": "253-582-8900", "TYPE": "Mental Health Facilities" }, "geometry": { "type": "Point", "coordinates": [ -122.567783116999976, 47.177586381000026 ] } },
{ "type": "Feature", "properties": { "FID": 108, "NAME": "Multicare Occupational Medicine - Fife", "ADDRESS": "502 54TH AVE E", "CITY": "Fife", "ZIP": "98424", "PHONE": "888-280-5513", "TYPE": "Alternate Care Facilities" }, "geometry": { "type": "Point", "coordinates": [ -122.357341105999978, 47.253454505000036 ] } },
{ "type": "Feature", "properties": { "FID": 109, "NAME": "Multicare Gig Harbor Medical Park", "ADDRESS": "4545 POINT FOSDICK DR NW", "CITY": "Gig Harbor", "ZIP": "98335", "PHONE": "253-530-8000", "TYPE": "Alternate Care Facilities" }, "geometry": { "type": "Point", "coordinates": [ -122.578282049999984, 47.299294825000061 ] } },
{ "type": "Feature", "properties": { "FID": 110, "NAME": "Multicare Lakewood  Clinic", "ADDRESS": "5700 100TH ST SW", "CITY": "Lakewood", "ZIP": "98499", "PHONE": "253-792-6526", "TYPE": "Alternate Care Facilities" }, "geometry": { "type": "Point", "coordinates": [ -122.513049791999947, 47.166054867000071 ] } },
{ "type": "Feature", "properties": { "FID": 111, "NAME": "Multicare Northshore Clinic", "ADDRESS": "4215 49TH AVE NE", "CITY": "Tacoma", "ZIP": "98422", "PHONE": "253-792-6651", "TYPE": "Alternate Care Facilities" }, "geometry": { "type": "Point", "coordinates": [ -122.381307742999979, 47.294791484000029 ] } },
{ "type": "Feature", "properties": { "FID": 112, "NAME": "Multicare University Place Urgent Care", "ADDRESS": "4310 BRIDGEPORT WAY W", "CITY": "University Place", "ZIP": "98466", "PHONE": "253-459-7177", "TYPE": "Alternate Care Facilities" }, "geometry": { "type": "Point", "coordinates": [ -122.537597227999981, 47.21795707900003 ] } },
{ "type": "Feature", "properties": { "FID": 113, "NAME": "Multicare West Tacoma Family Medicine", "ADDRESS": "2209 N PEARL ST", "CITY": "Tacoma", "ZIP": "98406", "PHONE": "253-792-6900", "TYPE": "Alternate Care Facilities" }, "geometry": { "type": "Point", "coordinates": [ -122.513788421999948, 47.268272426000067 ] } },
{ "type": "Feature", "properties": { "FID": 114, "NAME": "Planned Parenthood - Puyallup", "ADDRESS": "702 30TH AVE SW", "CITY": "Puyallup", "ZIP": "98373", "PHONE": "800-769-0045", "TYPE": "Alternate Care Facilities" }, "geometry": { "type": "Point", "coordinates": [ -122.301468726999985, 47.162841762000028 ] } },
{ "type": "Feature", "properties": { "FID": 115, "NAME": "Puyallup Tribe Elders Center", "ADDRESS": "3010 DUCT CHO RD", "CITY": "Tacoma", "ZIP": "98404", "PHONE": "253-680-5480", "TYPE": "Alternate Care Facilities" }, "geometry": { "type": "Point", "coordinates": [ -122.40040705499996, 47.237307504000057 ] } },
{ "type": "Feature", "properties": { "FID": 116, "NAME": "Puyallup Valley Physical Therapy", "ADDRESS": "2520 7TH ST SE", "CITY": "Puyallup", "ZIP": "98374", "PHONE": "253-848-2309", "TYPE": "Alternate Care Facilities" }, "geometry": { "type": "Point", "coordinates": [ -122.286054083999943, 47.167070666000029 ] } },
{ "type": "Feature", "properties": { "FID": 117, "NAME": "Planned Parenthood - Tacoma", "ADDRESS": "1515 MARTIN LUTHER KING JR WAY", "CITY": "Tacoma", "ZIP": "98405", "PHONE": "800-769-0045", "TYPE": "Alternate Care Facilities" }, "geometry": { "type": "Point", "coordinates": [ -122.45022531099994, 47.247304593000081 ] } },
{ "type": "Feature", "properties": { "FID": 118, "NAME": "All Womens Health", "ADDRESS": "3711 PACIFIC AVE", "CITY": "Tacoma", "ZIP": "98418", "PHONE": "253-471-3464", "TYPE": "Alternate Care Facilities" }, "geometry": { "type": "Point", "coordinates": [ -122.433466175999968, 47.224265052000078 ] } },
{ "type": "Feature", "properties": { "FID": 119, "NAME": "Cedar River Clinics", "ADDRESS": "1401 MARTIN LUTHER KING JR WAY", "CITY": "Tacoma", "ZIP": "98405", "PHONE": "800-572-4223", "TYPE": "Alternate Care Facilities" }, "geometry": { "type": "Point", "coordinates": [ -122.450650506999978, 47.248775477000038 ] } },
{ "type": "Feature", "properties": { "FID": 120, "NAME": "St Anthony Hospital", "ADDRESS": "11567 CANTERWOOD BLVD NW", "CITY": "Gig Harbor", "ZIP": "98332", "PHONE": "253-530-2000", "TYPE": "Hospitals" }, "geometry": { "type": "Point", "coordinates": [ -122.613468485999988, 47.36442457000004 ] } },
{ "type": "Feature", "properties": { "FID": 121, "NAME": "Takopid Health Center - Community Health", "ADDRESS": "2209 E 32ND ST", "CITY": "Tacoma", "ZIP": "98404", "PHONE": "253-593-0232", "TYPE": "Alternate Care Facilities" }, "geometry": { "type": "Point", "coordinates": [ -122.400831786999959, 47.236157294000066 ] } },
{ "type": "Feature", "properties": { "FID": 122, "NAME": "Lakewood Family Medical Clinic", "ADDRESS": "10510 GRAVELLY LAKE DR SW", "CITY": "Lakewood", "ZIP": "98499", "PHONE": "253-589-7030", "TYPE": "Alternate Care Facilities" }, "geometry": { "type": "Point", "coordinates": [ -122.521225930999947, 47.161374447000071 ] } },
{ "type": "Feature", "properties": { "FID": 123, "NAME": "Multicare Spanaway", "ADDRESS": "225 176TH ST S", "CITY": "Spanaway", "ZIP": "98387", "PHONE": "253-459-7770", "TYPE": "Alternate Care Facilities" }, "geometry": { "type": "Point", "coordinates": [ -122.436332126999957, 47.09762386500006 ] } },
{ "type": "Feature", "properties": { "FID": 124, "NAME": "Franciscan Medical Clinic - Milton", "ADDRESS": "2748 MILTON WAY", "CITY": "Milton", "ZIP": "98354", "PHONE": "253-922-5262", "TYPE": "Alternate Care Facilities" }, "geometry": { "type": "Point", "coordinates": [ -122.296987655999942, 47.250480354000047 ] } },
{ "type": "Feature", "properties": { "FID": 125, "NAME": "Franciscan Medical Clinic - Gig Harbor", "ADDRESS": "6401 KIMBALL DR", "CITY": "Gig Harbor", "ZIP": "98335", "PHONE": "253-858-9192", "TYPE": "Alternate Care Facilities" }, "geometry": { "type": "Point", "coordinates": [ -122.584134793999965, 47.317142797000031 ] } },
{ "type": "Feature", "properties": { "FID": 126, "NAME": "VA Puget Sound Health - American Lake", "ADDRESS": "9600 VETERANS DR SW", "CITY": "Tacoma", "ZIP": "98493", "PHONE": "253-582-8440", "TYPE": "Hospitals" }, "geometry": { "type": "Point", "coordinates": [ -122.575597022999943, 47.135263383000051 ] } },
{ "type": "Feature", "properties": { "FID": 127, "NAME": "Child Study & Treatment Center (WSH)", "ADDRESS": "8805 STEILACOOM BLVD SW", "CITY": "Lakewood", "ZIP": "98498", "PHONE": "253-756-2504", "TYPE": "Mental Health Facilities" }, "geometry": { "type": "Point", "coordinates": [ -122.558762175999959, 47.181262463000053 ] } },
{ "type": "Feature", "properties": { "FID": 128, "NAME": "Takopid Health Center - Main Entrance", "ADDRESS": "2209 E 32ND ST", "CITY": "Tacoma", "ZIP": "98404", "PHONE": "253-593-0247", "TYPE": "Mental Health Facilities" }, "geometry": { "type": "Point", "coordinates": [ -122.39984369199999, 47.236123946000077 ] } },
{ "type": "Feature", "properties": { "FID": 129, "NAME": "Tribal Treatment - Puyallup Tribe", "ADDRESS": "3009 E PORTLAND AVE", "CITY": "Tacoma", "ZIP": "98404", "PHONE": "253-573-7800", "TYPE": "Alternate Care Facilities" }, "geometry": { "type": "Point", "coordinates": [ -122.409652212999958, 47.236423939000076 ] } },
{ "type": "Feature", "properties": { "FID": 130, "NAME": "Franciscan Medical Clinic at St. Josephs", "ADDRESS": "1608 S J ST", "CITY": "Tacoma", "ZIP": "98405", "PHONE": "253-274-7503", "TYPE": "Alternate Care Facilities" }, "geometry": { "type": "Point", "coordinates": [ -122.44676706499996, 47.245676139000068 ] } },
{ "type": "Feature", "properties": { "FID": 131, "NAME": "Eastside Family Medical Center", "ADDRESS": "1708 E 44TH ST", "CITY": "Tacoma", "ZIP": "98404", "PHONE": "253-471-4553", "TYPE": "Alternate Care Facilities" }, "geometry": { "type": "Point", "coordinates": [ -122.405470609999952, 47.217073294000045 ] } },
{ "type": "Feature", "properties": { "FID": 132, "NAME": "Spanaway Family Medical Clinic", "ADDRESS": "134 188TH ST S", "CITY": "Spanaway", "ZIP": "98387", "PHONE": "253-847-2304", "TYPE": "Alternate Care Facilities" }, "geometry": { "type": "Point", "coordinates": [ -122.43412918699994, 47.086170155000048 ] } },
{ "type": "Feature", "properties": { "FID": 133, "NAME": "Franciscan Occupational Health - Port", "ADDRESS": "1930 PORT OF TACOMA RD", "CITY": "Tacoma", "ZIP": "98421", "PHONE": "253-272-6677", "TYPE": "Alternate Care Facilities" }, "geometry": { "type": "Point", "coordinates": [ -122.397411488999978, 47.262271032000058 ] } },
{ "type": "Feature", "properties": { "FID": 134, "NAME": "Franciscan Medical Clinic - UP", "ADDRESS": "7210 40TH ST W", "CITY": "University Place", "ZIP": "98466", "PHONE": "253-564-0170", "TYPE": "Alternate Care Facilities" }, "geometry": { "type": "Point", "coordinates": [ -122.533861022999986, 47.220546984000066 ] } },
{ "type": "Feature", "properties": { "FID": 135, "NAME": "Key Medical Center", "ADDRESS": "15610 89TH ST CT NW", "CITY": "Lakebay", "ZIP": "98349", "PHONE": "253-884-9221", "TYPE": "Alternate Care Facilities" }, "geometry": { "type": "Point", "coordinates": [ -122.745697415, 47.338124287000028 ] } },
{ "type": "Feature", "properties": { "FID": 136, "NAME": "US Health Works - Puyallup", "ADDRESS": "3850 S MERIDIAN", "CITY": "Puyallup", "ZIP": "98373", "PHONE": "253-840-1840", "TYPE": "Alternate Care Facilities" }, "geometry": { "type": "Point", "coordinates": [ -122.29353763099999, 47.155526630000054 ] } },
{ "type": "Feature", "properties": { "FID": 137, "NAME": "St Leo Neighborhood Clinic", "ADDRESS": "1323 YAKIMA AVE", "CITY": "Tacoma", "ZIP": "98405", "PHONE": "253-627-6353", "TYPE": "Alternate Care Facilities" }, "geometry": { "type": "Point", "coordinates": [ -122.44645063199999, 47.249723901000038 ] } },
{ "type": "Feature", "properties": { "FID": 138, "NAME": "Sea Mar Tacoma Medical Clinic", "ADDRESS": "1112 S CUSHMAN AVE", "CITY": "Tacoma", "ZIP": "98405", "PHONE": "253-593-2144", "TYPE": "Alternate Care Facilities" }, "geometry": { "type": "Point", "coordinates": [ -122.457730566999942, 47.250784359000079 ] } },
{ "type": "Feature", "properties": { "FID": 139, "NAME": "Trinity Neighborhood Health Clinic", "ADDRESS": "1615 6TH AVE", "CITY": "Tacoma", "ZIP": "98405", "PHONE": "253-272-8819", "TYPE": "Alternate Care Facilities" }, "geometry": { "type": "Point", "coordinates": [ -122.460908495999945, 47.256520024000054 ] } },
{ "type": "Feature", "properties": { "FID": 140, "NAME": "Multicare Tacoma Family Medicine", "ADDRESS": "521 MARTIN LUTHER KING JR WAY", "CITY": "Tacoma", "ZIP": "98405", "PHONE": "253-792-6680", "TYPE": "Alternate Care Facilities" }, "geometry": { "type": "Point", "coordinates": [ -122.452527553999971, 47.25745418300005 ] } },
{ "type": "Feature", "properties": { "FID": 141, "NAME": "Hilltop Regional Health Center", "ADDRESS": "1202 MARTIN LUTHER KING JR WAY", "CITY": "Tacoma", "ZIP": "98405", "PHONE": "253-441-4742", "TYPE": "Alternate Care Facilities" }, "geometry": { "type": "Point", "coordinates": [ -122.451851178999959, 47.250705329000027 ] } },
{ "type": "Feature", "properties": { "FID": 142, "NAME": "Pacific General Medical Clinic", "ADDRESS": "7440 PACIFIC AVE", "CITY": "Tacoma", "ZIP": "98408", "PHONE": "253-475-0511", "TYPE": "Alternate Care Facilities" }, "geometry": { "type": "Point", "coordinates": [ -122.435437395999941, 47.188890197000035 ] } },
{ "type": "Feature", "properties": { "FID": 143, "NAME": "Parkland Family Medical Clinic", "ADDRESS": "11225 PACIFIC AVE", "CITY": "Tacoma", "ZIP": "98444", "PHONE": "253-536-2020", "TYPE": "Alternate Care Facilities" }, "geometry": { "type": "Point", "coordinates": [ -122.433803439999963, 47.154311435000068 ] } },
{ "type": "Feature", "properties": { "FID": 144, "NAME": "Sea Mar Tillicum Medical Clinic", "ADDRESS": "14916 WASHINGTON AVE SW", "CITY": "Lakewood", "ZIP": "98498", "PHONE": "253-280-9890", "TYPE": "Alternate Care Facilities" }, "geometry": { "type": "Point", "coordinates": [ -122.554244013999948, 47.123819979000075 ] } },
{ "type": "Feature", "properties": { "FID": 145, "NAME": "The Home Doctor", "ADDRESS": "4901 108TH ST SW", "CITY": "Lakewood", "ZIP": "98499", "PHONE": "253-589-6484", "TYPE": "Alternate Care Facilities" }, "geometry": { "type": "Point", "coordinates": [ -122.502449686999967, 47.159705986000063 ] } },
{ "type": "Feature", "properties": { "FID": 146, "NAME": "Cornerstone Medical Clinic", "ADDRESS": "1420 MAIN ST", "CITY": "Sumner", "ZIP": "98390", "PHONE": "253-987-5156", "TYPE": "Alternate Care Facilities" }, "geometry": { "type": "Point", "coordinates": [ -122.236155700999973, 47.203056771000035 ] } },
{ "type": "Feature", "properties": { "FID": 147, "NAME": "Multicare Bonney Lake Internal Medicine", "ADDRESS": "10004 204TH AVE E", "CITY": "Bonney Lake", "ZIP": "98391", "PHONE": "253-447-3300", "TYPE": "Alternate Care Facilities" }, "geometry": { "type": "Point", "coordinates": [ -122.157049977999975, 47.165505389000032 ] } },
{ "type": "Feature", "properties": { "FID": 148, "NAME": "Multicare Eatonville Clinic", "ADDRESS": "118 WASHINGTON AVE N", "CITY": "Eatonville", "ZIP": "98328", "PHONE": "360-832-7300", "TYPE": "Alternate Care Facilities" }, "geometry": { "type": "Point", "coordinates": [ -122.265881370999978, 46.868317405000028 ] } },
{ "type": "Feature", "properties": { "FID": 149, "NAME": "Multicare Frederickson Clinic", "ADDRESS": "5612 176TH ST E", "CITY": "Frederickson", "ZIP": "98375", "PHONE": "253-792-6652", "TYPE": "Alternate Care Facilities" }, "geometry": { "type": "Point", "coordinates": [ -122.354455236999968, 47.094876323000051 ] } },
{ "type": "Feature", "properties": { "FID": 150, "NAME": "Multicare Puyallup Internal Medicine", "ADDRESS": "1701 3RD ST SE", "CITY": "Puyallup", "ZIP": "98372", "PHONE": "253-697-5767", "TYPE": "Alternate Care Facilities" }, "geometry": { "type": "Point", "coordinates": [ -122.290288389999944, 47.175762390000045 ] } },
{ "type": "Feature", "properties": { "FID": 151, "NAME": "Multicare South Hill Clinic", "ADDRESS": "16515 MERIDIAN AVE E", "CITY": "Puyallup", "ZIP": "98375", "PHONE": "253-792-6650", "TYPE": "Alternate Care Facilities" }, "geometry": { "type": "Point", "coordinates": [ -122.291911741999968, 47.105877582000062 ] } },
{ "type": "Feature", "properties": { "FID": 152, "NAME": "Multicare Sumner Medical Associates", "ADDRESS": "5814 GRAHAM AVE", "CITY": "Sumner", "ZIP": "98390", "PHONE": "253-891-7450", "TYPE": "Alternate Care Facilities" }, "geometry": { "type": "Point", "coordinates": [ -122.224593582999944, 47.204029854000055 ] } },
{ "type": "Feature", "properties": { "FID": 153, "NAME": "Multicare Allenmore Internal Medicine", "ADDRESS": "3124 S 19TH ST", "CITY": "Tacoma", "ZIP": "98405", "PHONE": "253-792-6510", "TYPE": "Alternate Care Facilities" }, "geometry": { "type": "Point", "coordinates": [ -122.477506446999939, 47.242276382000057 ] } },
{ "type": "Feature", "properties": { "FID": 154, "NAME": "MultiCare Good Samaritan Emergency", "ADDRESS": "14815 PACIFIC AVE S", "CITY": "Tacoma", "ZIP": "98444", "PHONE": "253-697-8660", "TYPE": "Alternate Care Facilities" }, "geometry": { "type": "Point", "coordinates": [ -122.434398617999989, 47.122251915000049 ] } }
]
}
